[{"country_code": "US", "elevation": "122.8", "name": "Abbott Memorial Alumni Stadium", "zip": null, "grass": null, "capacity": 10000, "location": null, "id": 4747, "city": "Tuskegee", "year_constructed": 1925, "dome": false, "state": "AL"}, {"country_code": "US", "elevation": "20.24213219", "name": "Ace W. Mumford Stadium", "zip": null, "grass": null, "capacity": 28500, "location": {"y": -91.1896087, "x": 30.5221461}, "id": 3599, "city": "Baton Rouge", "year_constructed": 1928, "dome": false, "state": "LA"}, {"country_code": "US", "elevation": "1208.201294", "name": "Aggie Memorial Stadium", "zip": "88003", "grass": false, "capacity": 30343, "location": {"y": -106.7411148, "x": 32.2796202}, "id": 3601, "city": "Las Cruces", "year_constructed": 1978, "dome": false, "state": "NM"}, {"country_code": "US", "elevation": "235.1224518", "name": "Aggie Stadium", "zip": null, "grass": null, "capacity": 21500, "location": {"y": -79.7700391, "x": 36.0814337}, "id": 3603, "city": "Greensboro", "year_constructed": 1981, "dome": false, "state": "NC"}, {"country_code": "US", "elevation": "11.3825922", "name": "Aggie Stadium", "zip": null, "grass": null, "capacity": 10849, "location": {"y": -121.7627936, "x": 38.5365266}, "id": 3602, "city": "Davis", "year_constructed": 2007, "dome": false, "state": "CA"}, {"country_code": "US", "elevation": "201.5526886", "name": "Alamodome", "zip": "78299", "grass": false, "capacity": 65000, "location": {"y": -98.4788143, "x": 29.4169834}, "id": 3604, "city": "San Antonio", "year_constructed": 1993, "dome": false, "state": "TX"}, {"country_code": "US", "elevation": "823.2221069", "name": "Albertsons Stadium", "zip": "83725", "grass": false, "capacity": 36387, "location": {"y": -116.1958882, "x": 43.6028839}, "id": 3653, "city": "Boise", "year_constructed": 1970, "dome": false, "state": "ID"}, {"country_code": "US", "elevation": "255.2472076", "name": "Alerus Center", "zip": null, "grass": false, "capacity": 12283, "location": {"y": -97.090996, "x": 47.910622}, "id": 3605, "city": "Grand Forks", "year_constructed": 2001, "dome": false, "state": "ND"}, {"country_code": "US", "elevation": "84.6832428", "name": "Alex G. Spanos Stadium", "zip": null, "grass": null, "capacity": 11075, "location": {"y": -120.6650005, "x": 35.2984123}, "id": 1027, "city": "San Luis Obispo", "year_constructed": 2006, "dome": false, "state": "CA"}, {"country_code": "US", "elevation": "35.4817543", "name": "Alfond Stadium", "zip": "04469", "grass": false, "capacity": 10000, "location": {"y": -68.6724718, "x": 44.905128}, "id": 3607, "city": "Orono", "year_constructed": 1998, "dome": false, "state": "ME"}, {"country_code": "US", "elevation": "336.1", "name": "Allgood-Bailey Stadium", "zip": null, "grass": null, "capacity": 8000, "location": null, "id": 3609, "city": "Rolla", "year_constructed": 1967, "dome": false, "state": "MO"}, {"country_code": "AU", "elevation": "42.8", "name": "Allianz Stadium", "zip": null, "grass": true, "capacity": 45500, "location": null, "id": 5363, "city": "Sydney", "year_constructed": 1988, "dome": false, "state": "NSW"}, {"country_code": "US", "elevation": "10.26500511", "name": "Aloha Stadium", "zip": "96818", "grass": false, "capacity": 50000, "location": {"y": -157.9299645, "x": 21.3728014}, "id": 3610, "city": "Honolulu", "year_constructed": 1975, "dome": false, "state": "HI"}, {"country_code": "US", "elevation": "294.958252", "name": "Alumni Memorial Field", "zip": null, "grass": null, "capacity": 10000, "location": {"y": -79.43505, "x": 37.788983}, "id": 3597, "city": "Lexington", "year_constructed": 1962, "dome": false, "state": "VA"}, {"country_code": "US", "elevation": "10.95275307", "name": "Alumni Stadium", "zip": null, "grass": null, "capacity": 7000, "location": {"y": -75.5433185, "x": 39.189375}, "id": 3613, "city": "Dover", "year_constructed": 1980, "dome": false, "state": "DE"}, {"country_code": "US", "elevation": "39.82634354", "name": "Alumni Stadium", "zip": "02467", "grass": false, "capacity": 44500, "location": {"y": -71.1664413, "x": 42.335104}, "id": 3615, "city": "Chestnut Hill", "year_constructed": 1957, "dome": false, "state": "MA"}, {"country_code": "US", "elevation": "185.4387054", "name": "Amon G. Carter Stadium", "zip": "76129", "grass": false, "capacity": 45000, "location": {"y": -97.3680835, "x": 32.7096604}, "id": 3616, "city": "Fort Worth", "year_constructed": 1929, "dome": false, "state": "TX"}, {"country_code": "US", "elevation": "337.1443787", "name": "Andy Kerr Stadium", "zip": null, "grass": null, "capacity": 10221, "location": {"y": -75.5452721, "x": 42.8168991}, "id": 3617, "city": "Hamilton", "year_constructed": 1966, "dome": false, "state": "NY"}, {"country_code": "AU", "elevation": "9.444999695", "name": "ANZ Stadium", "zip": null, "grass": true, "capacity": 83500, "location": {"y": 151.063435, "x": -33.846991}, "id": 5221, "city": "Sydney", "year_constructed": 1999, "dome": false, "state": ""}, {"country_code": "US", "elevation": "198.6871948", "name": "Apogee Stadium", "zip": "76210", "grass": false, "capacity": 30850, "location": {"y": -97.159245, "x": 33.203899}, "id": 3825, "city": "Denton", "year_constructed": 2011, "dome": false, "state": "TX"}, {"country_code": "US", "elevation": "742.1530151", "name": "Arizona Stadium", "zip": "85721", "grass": false, "capacity": 56029, "location": {"y": -110.9488677, "x": 32.2288054}, "id": 3619, "city": "Tucson", "year_constructed": 1928, "dome": false, "state": "AZ"}, {"country_code": "US", "elevation": "2.574624538", "name": "Armstrong Stadium", "zip": null, "grass": null, "capacity": 17000, "location": {"y": -76.3331555, "x": 37.0200894}, "id": 3620, "city": "Hampton", "year_constructed": 1928, "dome": false, "state": "VA"}, {"country_code": "US", "elevation": "256.798584", "name": "Arrowhead Stadium", "zip": null, "grass": true, "capacity": 76416, "location": {"y": -94.483889, "x": 39.048889}, "id": 3622, "city": "Kansas City", "year_constructed": 1972, "dome": false, "state": "MO"}, {"country_code": "US", "elevation": "269.4302979", "name": "Arthur J. Rooney Athletic Field", "zip": null, "grass": null, "capacity": 2200, "location": {"y": -79.9900263, "x": 40.4355808}, "id": 3623, "city": "Pittsburgh", "year_constructed": 1993, "dome": false, "state": "PA"}, {"country_code": "US", "elevation": "41.29866409", "name": "Arute Field", "zip": null, "grass": null, "capacity": 3500, "location": {"y": -72.7616197, "x": 41.6950591}, "id": 3624, "city": "New Britain", "year_constructed": 1969, "dome": false, "state": "CT"}, {"country_code": "US", "elevation": "172.5047302", "name": "AT&T Stadium", "zip": null, "grass": false, "capacity": 100000, "location": {"y": -97.092778, "x": 32.747778}, "id": 3687, "city": "Arlington", "year_constructed": 2009, "dome": false, "state": "TX"}, {"country_code": "US", "elevation": "127.4198303", "name": "Autzen Stadium", "zip": "97401", "grass": false, "capacity": 54000, "location": {"y": -123.0684883, "x": 44.0582712}, "id": 3626, "city": "Eugene", "year_constructed": 1967, "dome": false, "state": "OR"}, {"country_code": "IE", "elevation": "2.264276505", "name": "Aviva Stadium", "zip": null, "grass": true, "capacity": 51700, "location": {"y": -6.228447, "x": 53.33523}, "id": 3504, "city": "Dublin", "year_constructed": 2010, "dome": false, "state": ""}, {"country_code": "US", "elevation": "194.1601868", "name": "Bailey Memorial Stadium", "zip": null, "grass": null, "capacity": 6500, "location": {"y": -81.861368, "x": 34.46158}, "id": 3627, "city": "Clinton", "year_constructed": 2002, "dome": false, "state": "SC"}, {"country_code": "US", "elevation": "220.8777466", "name": "Bank of America Stadium", "zip": "28202", "grass": true, "capacity": 75412, "location": {"y": -80.852778, "x": 35.225833}, "id": 3628, "city": "Charlotte", "year_constructed": 1996, "dome": false, "state": "NC"}, {"country_code": "US", "elevation": "56.51401138", "name": "Barker-Lane Stadium", "zip": null, "grass": null, "capacity": 5000, "location": {"y": -78.7424842, "x": 35.4047689}, "id": 3629, "city": "Buies Creek", "year_constructed": 2008, "dome": false, "state": "NC"}, {"country_code": "US", "elevation": "283.548584", "name": "BB&T Field", "zip": "27105", "grass": false, "capacity": 31500, "location": {"y": -80.2545851, "x": 36.1305507}, "id": 3630, "city": "Winston-Salem", "year_constructed": 1968, "dome": false, "state": "NC"}, {"country_code": "US", "elevation": "13.68128395", "name": "BBVA Compass Stadium", "zip": null, "grass": null, "capacity": 22039, "location": {"y": -95.3524146, "x": 29.7521988}, "id": 3631, "city": "Houston", "year_constructed": 2012, "dome": false, "state": "TX"}, {"country_code": "US", "elevation": "354.1551514", "name": "Beaver Stadium", "zip": "16802", "grass": false, "capacity": 106572, "location": {"y": -77.8561023, "x": 40.8121958}, "id": 3632, "city": "University Park", "year_constructed": 1960, "dome": false, "state": "PA"}, {"country_code": "US", "elevation": "44.97250748", "name": "Ben Hill Griffin Stadium", "zip": "32653", "grass": false, "capacity": 88548, "location": {"y": -82.3485788, "x": 29.6499357}, "id": 3634, "city": "Gainesville", "year_constructed": 1930, "dome": false, "state": "FL"}, {"country_code": "US", "elevation": "0.0000000000000000000000000000000000000118", "name": "Benson Field at Yulman Stadium", "zip": null, "grass": false, "capacity": 30000, "location": {"y": -90.116692, "x": 29.944616}, "id": 4729, "city": "New Orleans", "year_constructed": 2014, "dome": false, "state": "LA"}, {"country_code": "US", "elevation": "328.0574646", "name": "Bill Snyder Family Football Stadium", "zip": "66502", "grass": false, "capacity": 50000, "location": {"y": -96.5938395, "x": 39.2020096}, "id": 3636, "city": "Manhattan", "year_constructed": 1968, "dome": false, "state": "KS"}, {"country_code": "US", "elevation": "78.4", "name": "Blackshear Stadium", "zip": null, "grass": null, "capacity": 15000, "location": null, "id": 3639, "city": "Prairie View", "year_constructed": 2016, "dome": false, "state": "TX"}, {"country_code": "US", "elevation": "99.21277618", "name": "Blaik Field at Michie Stadium", "zip": "10996", "grass": false, "capacity": 38000, "location": {"y": -73.9640891, "x": 41.3874924}, "id": 3841, "city": "West Point", "year_constructed": 1924, "dome": false, "state": "NY"}, {"country_code": "US", "elevation": "19.55942535", "name": "Bobby Bowden Field at Doak Campbell Stadium", "zip": "32306", "grass": false, "capacity": 79560, "location": {"y": -84.3044032, "x": 30.4381692}, "id": 3697, "city": "Tallahassee", "year_constructed": 1950, "dome": false, "state": "FL"}, {"country_code": "US", "elevation": "279.300415", "name": "Bobby Dodd Stadium at Historic Grant Field", "zip": "30332", "grass": false, "capacity": 55000, "location": {"y": -84.3928054, "x": 33.7724449}, "id": 721, "city": "Atlanta", "year_constructed": 1913, "dome": false, "state": "GA"}, {"country_code": "US", "elevation": "1507.508667", "name": "Bobcat Stadium", "zip": null, "grass": null, "capacity": 19000, "location": {"y": -111.049547, "x": 45.659048}, "id": 3643, "city": "Bozeman", "year_constructed": 1973, "dome": false, "state": "MT"}, {"country_code": "US", "elevation": "64.42764282", "name": "Bob Ford Field", "zip": null, "grass": null, "capacity": 8500, "location": {"y": -73.8272841, "x": 42.6808062}, "id": 4419, "city": "Albany", "year_constructed": 2013, "dome": false, "state": "NY"}, {"country_code": "US", "elevation": "276.4808655", "name": "Boone Pickens Stadium", "zip": "74078", "grass": false, "capacity": 60218, "location": {"y": -97.066513, "x": 36.125673}, "id": 3646, "city": "Stillwater", "year_constructed": 1919, "dome": false, "state": "OK"}, {"country_code": "US", "elevation": "127.6225204", "name": "Bowers Stadium", "zip": null, "grass": null, "capacity": 14000, "location": {"y": -95.5419802, "x": 30.713926}, "id": 3647, "city": "Huntsville", "year_constructed": 1986, "dome": false, "state": "TX"}, {"country_code": "US", "elevation": "242.5", "name": "Bowman Gray Stadium", "zip": null, "grass": null, "capacity": 17000, "location": null, "id": 3649, "city": "Winston-Salem", "year_constructed": 1937, "dome": false, "state": "NC"}, {"country_code": "US", "elevation": "31.18483925", "name": "Bragg Memorial Stadium", "zip": null, "grass": null, "capacity": 25500, "location": {"y": -84.2923095, "x": 30.4261632}, "id": 3650, "city": "Tallahassee", "year_constructed": 1957, "dome": false, "state": "FL"}, {"country_code": "US", "elevation": "172.3", "name": "Braly Municipal Stadium", "zip": null, "grass": null, "capacity": 14215, "location": null, "id": 4133, "city": "Florence", "year_constructed": 1949, "dome": false, "state": "AL"}, {"country_code": "US", "elevation": "399.303009", "name": "Bridgeforth Stadium", "zip": null, "grass": null, "capacity": 24878, "location": {"y": -78.8729349, "x": 38.4352919}, "id": 3651, "city": "Harrisonburg", "year_constructed": 1975, "dome": false, "state": "VA"}, {"country_code": "US", "elevation": "267.4530029", "name": "Brigham Field at Huskie Stadium", "zip": "60115", "grass": false, "capacity": 23595, "location": {"y": -88.7778357, "x": 41.9339586}, "id": 3764, "city": "DeKalb", "year_constructed": 1965, "dome": false, "state": "IL"}, {"country_code": "US", "elevation": "20.94113731", "name": "Bright House Networks Stadium", "zip": "32816", "grass": false, "capacity": 44206, "location": {"y": -81.1927233, "x": 28.6079765}, "id": 3652, "city": "Orlando", "year_constructed": 2007, "dome": false, "state": "FL"}, {"country_code": "US", "elevation": "456.8201294", "name": "Bristol Motor Speedway", "zip": null, "grass": true, "capacity": 162000, "location": {"y": -82.257, "x": 36.516}, "id": 4617, "city": "Briston", "year_constructed": 1961, "dome": false, "state": "TN"}, {"country_code": "US", "elevation": "13.74894905", "name": "Brooks Stadium", "zip": "29528", "grass": false, "capacity": 9214, "location": {"y": -79.0166946, "x": 33.7928506}, "id": 3654, "city": "Conway", "year_constructed": 2003, "dome": false, "state": "SC"}, {"country_code": "US", "elevation": "244.6367645", "name": "Brown Field", "zip": null, "grass": null, "capacity": 5000, "location": {"y": -87.0479446, "x": 41.465642}, "id": 3655, "city": "Valparaiso", "year_constructed": 1919, "dome": false, "state": "IN"}, {"country_code": "US", "elevation": "33.87348557", "name": "Brown Stadium", "zip": "02912", "grass": false, "capacity": 20000, "location": {"y": -71.3939416, "x": 41.842114}, "id": 3656, "city": "Providence", "year_constructed": 1925, "dome": false, "state": "RI"}, {"country_code": "US", "elevation": "70.05136108", "name": "Bryant Denny Stadium", "zip": "35487", "grass": false, "capacity": 101821, "location": {"y": -87.5503836, "x": 33.2082752}, "id": 3657, "city": "Tuscaloosa", "year_constructed": 1929, "dome": false, "state": "AL"}, {"country_code": "US", "elevation": "12.6744318", "name": "Buccaneer Field", "zip": null, "grass": null, "capacity": 4000, "location": {"y": -80.0659664, "x": 32.9810239}, "id": 3658, "city": "North Charleston", "year_constructed": 1970, "dome": false, "state": "SC"}, {"country_code": "US", "elevation": "124.471344", "name": "Bulldog Stadium", "zip": null, "grass": null, "capacity": 4400, "location": {"y": -71.5385124, "x": 41.924206}, "id": 3661, "city": "Smithfield", "year_constructed": 1999, "dome": false, "state": "RI"}, {"country_code": "US", "elevation": "102.564064", "name": "Bulldog Stadium", "zip": "93740", "grass": false, "capacity": 41031, "location": {"y": -119.7580092, "x": 36.8143527}, "id": 3660, "city": "Fresno", "year_constructed": 1980, "dome": false, "state": "CA"}, {"country_code": "US", "elevation": "221.1980591", "name": "Butler Bowl", "zip": null, "grass": null, "capacity": 5500, "location": {"y": -86.1659242, "x": 39.8444694}, "id": 3664, "city": "Indianapolis", "year_constructed": 1928, "dome": false, "state": "IN"}, {"country_code": "US", "elevation": "3.556508303", "name": "Cajun Field", "zip": "70506", "grass": false, "capacity": 36900, "location": {"y": -92.0417371, "x": 30.2158434}, "id": 3666, "city": "Lafayette", "year_constructed": 1971, "dome": false, "state": "LA"}, {"country_code": "US", "elevation": "125.3108063", "name": "California Memorial Stadium", "zip": "94720", "grass": false, "capacity": 62717, "location": {"y": -122.2507729, "x": 37.8710434}, "id": 3831, "city": "Berkeley", "year_constructed": 1923, "dome": false, "state": "CA"}, {"country_code": "US", "elevation": "31.37226868", "name": "Camping World Stadium", "zip": null, "grass": false, "capacity": 65000, "location": {"y": -81.402778, "x": 28.539167}, "id": 4013, "city": "Orlando", "year_constructed": 1946, "dome": false, "state": "FL"}, {"country_code": "US", "elevation": "263.604126", "name": "Camp Randall Stadium", "zip": "53711", "grass": false, "capacity": 80321, "location": {"y": -89.4126943, "x": 43.06994}, "id": 347, "city": "Madison", "year_constructed": 1917, "dome": false, "state": "WI"}, {"country_code": "US", "elevation": "82.02420044", "name": "Campus Field", "zip": null, "grass": null, "capacity": 4000, "location": {"y": -73.2417431, "x": 41.2212488}, "id": 3668, "city": "Fairfield", "year_constructed": 1993, "dome": false, "state": "CT"}, {"country_code": "US", "elevation": "1528.4", "name": "Canvas Stadium", "zip": "80521", "grass": false, "capacity": 41000, "location": null, "id": 5388, "city": "Fort Collins", "year_constructed": 2017, "dome": false, "state": "CO"}, {"country_code": "US", "elevation": "162.6989746", "name": "Carrier Dome", "zip": "13244", "grass": false, "capacity": 49250, "location": {"y": -76.1363161, "x": 43.0362269}, "id": 1964, "city": "Syracuse", "year_constructed": 1980, "dome": false, "state": "NY"}, {"country_code": "US", "elevation": "117.0089951", "name": "Carter-Finley Stadium", "zip": "27695", "grass": false, "capacity": 57583, "location": {"y": -78.7195655, "x": 35.8008001}, "id": 3670, "city": "Raleigh", "year_constructed": 1966, "dome": false, "state": "NC"}, {"country_code": "US", "elevation": "-81.603639", "name": "Case Field", "zip": "85099", "grass": false, "capacity": 2400, "location": null, "id": 3671, "city": "Cleveland", "year_constructed": 2005, "dome": false, "state": "OH"}, {"country_code": "US", "elevation": "89.52690887", "name": "Centennial Bank Stadium", "zip": "72404", "grass": false, "capacity": 30964, "location": {"y": -90.6677436, "x": 35.8488977}, "id": 3625, "city": "Jonesboro", "year_constructed": 1974, "dome": false, "state": "AR"}, {"country_code": "US", "elevation": "5.2", "name": "CenturyLink Field", "zip": null, "grass": false, "capacity": 69000, "location": null, "id": 3673, "city": "Seattle", "year_constructed": 2002, "dome": false, "state": "WA"}, {"country_code": "US", "elevation": "323.2064514", "name": "Chase Field", "zip": null, "grass": false, "capacity": 48519, "location": {"y": -112.066944, "x": 33.445278}, "id": 4251, "city": "Phoenix", "year_constructed": 1998, "dome": false, "state": "AZ"}, {"country_code": "US", "elevation": "300.8", "name": "Children's Mercy Park", "zip": null, "grass": null, "capacity": 18467, "location": null, "id": 3486, "city": "Kansas City", "year_constructed": 2011, "dome": false, "state": "KS"}, {"country_code": "US", "elevation": "151.194931", "name": "Christy Mathewson-Memorial Stadium", "zip": null, "grass": null, "capacity": 13100, "location": {"y": -76.884752, "x": 40.9519411}, "id": 3676, "city": "Lewisburg", "year_constructed": 1924, "dome": false, "state": "PA"}, {"country_code": "US", "elevation": "31.2384243", "name": "Coffey Field", "zip": null, "grass": null, "capacity": 7000, "location": {"y": -73.8827649, "x": 40.8615808}, "id": 3681, "city": "The Bronx", "year_constructed": 1930, "dome": false, "state": "NY"}, {"country_code": "US", "elevation": "307.4248962", "name": "Commonwealth Stadium", "zip": "40506", "grass": false, "capacity": 61000, "location": {"y": -84.5053408, "x": 38.0220905}, "id": 3683, "city": "Lexington", "year_constructed": 1973, "dome": false, "state": "KY"}, {"country_code": "US", "elevation": "32.38431549", "name": "Cooper Field", "zip": null, "grass": null, "capacity": 2500, "location": {"y": -77.0753144, "x": 38.9080248}, "id": 3847, "city": "Washington", "year_constructed": 2003, "dome": false, "state": "DC"}, {"country_code": "US", "elevation": "133.2241211", "name": "Cotton Bowl", "zip": "75210", "grass": false, "capacity": 92100, "location": {"y": -96.759722, "x": 32.779722}, "id": 499, "city": "Dallas", "year_constructed": 1930, "dome": false, "state": "TX"}, {"country_code": "US", "elevation": "495.8", "name": "Coughlin-Alumni Stadium", "zip": "57007", "grass": false, "capacity": 16700, "location": null, "id": 3685, "city": "Brookings", "year_constructed": 1961, "dome": false, "state": "SD"}, {"country_code": "US", "elevation": "495.7769775", "name": "Coughlin-Alumni Stadium", "zip": null, "grass": null, "capacity": 15000, "location": {"y": -96.7801386, "x": 44.3210182}, "id": 5237, "city": "Brookings", "year_constructed": 1962, "dome": false, "state": "SD"}, {"country_code": "US", "elevation": "4.168509007", "name": "Cowboy Stadium", "zip": null, "grass": null, "capacity": 17410, "location": {"y": -93.2178729, "x": 30.1804575}, "id": 3686, "city": "Lake Charles", "year_constructed": 1965, "dome": false, "state": "LA"}, {"country_code": "US", "elevation": "75.10210419", "name": "Cramton Bowl", "zip": "36101", "grass": false, "capacity": 21000, "location": {"y": -86.293002, "x": 32.37949}, "id": 3689, "city": "Montgomery", "year_constructed": 1922, "dome": false, "state": "AL"}, {"country_code": "IE", "elevation": "4.7", "name": "Croke Park Stadium", "zip": null, "grass": false, "capacity": 82300, "location": null, "id": 4737, "city": "Dublin", "year_constructed": 1884, "dome": false, "state": ""}, {"country_code": "US", "elevation": "373.3928833", "name": "DakotaDome", "zip": null, "grass": false, "capacity": 10000, "location": {"y": -96.9278427, "x": 42.7911218}, "id": 1905, "city": "Vermillion", "year_constructed": 1979, "dome": false, "state": "SD"}, {"country_code": "US", "elevation": "160.3089447", "name": "Darrell K Royal-Texas Memorial Stadium", "zip": "78712", "grass": false, "capacity": 100119, "location": {"y": -97.7325345, "x": 30.2836813}, "id": 3910, "city": "Austin", "year_constructed": 1924, "dome": false, "state": "TX"}, {"country_code": "US", "elevation": "110.2742081", "name": "Davis Wade Stadium", "zip": "39762", "grass": false, "capacity": 61337, "location": {"y": -88.7933652, "x": 33.4563403}, "id": 3693, "city": "Starkville", "year_constructed": 1914, "dome": false, "state": "MS"}, {"country_code": "US", "elevation": "12.51101398", "name": "D. B. Milne Field", "zip": null, "grass": null, "capacity": 5000, "location": {"y": -81.605476, "x": 30.3568843}, "id": 3691, "city": "Jacksonville", "year_constructed": 1998, "dome": false, "state": "FL"}, {"country_code": "US", "elevation": "586.9408569", "name": "DeGol Field", "zip": null, "grass": null, "capacity": 3500, "location": {"y": -78.637214, "x": 40.5063173}, "id": 3694, "city": "Loretto", "year_constructed": 2006, "dome": false, "state": "PA"}, {"country_code": "US", "elevation": "28.74350357", "name": "Delaware Stadium", "zip": null, "grass": null, "capacity": 22000, "location": {"y": -75.7488224, "x": 39.6617428}, "id": 3695, "city": "Newark", "year_constructed": 1952, "dome": false, "state": "DE"}, {"country_code": "US", "elevation": "321.3641663", "name": "Dix Stadium", "zip": "44242", "grass": false, "capacity": 25000, "location": {"y": -81.31346, "x": 41.1390935}, "id": 3696, "city": "Kent", "year_constructed": 1969, "dome": false, "state": "OH"}, {"country_code": "US", "elevation": "403.7972412", "name": "Donald W. Reynolds Razorback Stadium Frank Broyles Field", "zip": "72702", "grass": false, "capacity": 72000, "location": {"y": -94.1789534, "x": 36.0680662}, "id": 3887, "city": "Fayetteville", "year_constructed": 1938, "dome": false, "state": "AR"}, {"country_code": "US", "elevation": "19.0564537", "name": "Dowdy-Ficklen Stadium", "zip": "27858", "grass": false, "capacity": 50000, "location": {"y": -77.364564, "x": 35.5968486}, "id": 3699, "city": "Greenville", "year_constructed": 1963, "dome": false, "state": "NC"}, {"country_code": "US", "elevation": "205.9057465", "name": "Doyt Perry Stadium", "zip": "43403", "grass": false, "capacity": 24000, "location": {"y": -83.6225, "x": 41.3780114}, "id": 3700, "city": "Bowling Green", "year_constructed": 1966, "dome": false, "state": "OH"}, {"country_code": "US", "elevation": "277.8869934", "name": "Drake Stadium", "zip": null, "grass": null, "capacity": 14557, "location": {"y": -93.655, "x": 41.605}, "id": 3701, "city": "Des Moines", "year_constructed": 1925, "dome": false, "state": "IA"}, {"country_code": "US", "elevation": "1763.97644", "name": "Eccles Coliseum", "zip": null, "grass": null, "capacity": 8500, "location": {"y": -113.0773938, "x": 37.6757919}, "id": 3706, "city": "Cedar City", "year_constructed": 1967, "dome": false, "state": "UT"}, {"country_code": "US", "elevation": "60.03879166", "name": "E. Claiborne Robins Stadium", "zip": null, "grass": null, "capacity": 9000, "location": {"y": -77.5372211, "x": 37.5807765}, "id": 2068, "city": "Richmond", "year_constructed": 2010, "dome": false, "state": "VA"}, {"country_code": "US", "elevation": "94.58428955", "name": "Eddie Robinson Stadium", "zip": null, "grass": null, "capacity": 19600, "location": {"y": -92.7146412, "x": 32.5258665}, "id": 3902, "city": "Grambling", "year_constructed": 1983, "dome": false, "state": "LA"}, {"country_code": "US", "elevation": "309.1", "name": "Edwards-Maurer Field", "zip": null, "grass": null, "capacity": 3000, "location": null, "id": 4757, "city": "Springfield", "year_constructed": 1993, "dome": false, "state": "OH"}, {"country_code": "US", "elevation": "653.8632813", "name": "E. J. Whitmire Stadium", "zip": null, "grass": null, "capacity": 13742, "location": {"y": -83.1818148, "x": 35.3048352}, "id": 3704, "city": "Cullowhee", "year_constructed": 1974, "dome": false, "state": "NC"}, {"country_code": "US", "elevation": "253.207016", "name": "Ernest W. Spangler Stadium", "zip": null, "grass": null, "capacity": 8500, "location": {"y": -81.6739887, "x": 35.2457593}, "id": 3710, "city": "Boiling Springs", "year_constructed": 1969, "dome": false, "state": "NC"}, {"country_code": "US", "elevation": "94.25577545", "name": "Estes Stadium", "zip": null, "grass": null, "capacity": 9000, "location": {"y": -92.460045, "x": 35.0802599}, "id": 3711, "city": "Conway", "year_constructed": 1939, "dome": false, "state": "AR"}, {"country_code": "US", "elevation": "1.336527586", "name": "EverBank Field", "zip": "32022", "grass": true, "capacity": 67246, "location": {"y": -81.6375, "x": 30.323889}, "id": 3712, "city": "Jacksonville", "year_constructed": 1995, "dome": false, "state": "FL"}, {"country_code": "US", "elevation": "2024.875732", "name": "Falcon Stadium", "zip": "80840", "grass": false, "capacity": 46692, "location": {"y": -104.8436165, "x": 38.9969701}, "id": 3713, "city": "Colorado Springs", "year_constructed": 1962, "dome": false, "state": "CO"}, {"country_code": "US", "elevation": "274.4847717", "name": "Fargodome", "zip": null, "grass": false, "capacity": 19000, "location": {"y": -96.8003251, "x": 46.9029938}, "id": 3714, "city": "Fargo", "year_constructed": 1992, "dome": false, "state": "ND"}, {"country_code": "US", "elevation": "212.6865692", "name": "Faurot Field", "zip": "65211", "grass": false, "capacity": 71168, "location": {"y": -92.3332009, "x": 38.9358491}, "id": 3838, "city": "Columbia", "year_constructed": 1927, "dome": false, "state": "MO"}, {"country_code": "US", "elevation": "3.613628864", "name": "FAU Stadium", "zip": "33499", "grass": false, "capacity": 30000, "location": {"y": -80.1015759, "x": 26.3763763}, "id": 3715, "city": "Boca Raton", "year_constructed": 2011, "dome": false, "state": "FL"}, {"country_code": "US", "elevation": "59.50488663", "name": "FedEx Field", "zip": "20785", "grass": true, "capacity": 82000, "location": {"y": -76.864444, "x": 38.907778}, "id": 3719, "city": "Landover", "year_constructed": 1997, "dome": false, "state": "MD"}, {"country_code": "US", "elevation": "4.887843609", "name": "Fenway Park", "zip": "2297 ", "grass": true, "capacity": 38073, "location": {"y": -71.0975, "x": 42.346389}, "id": 4245, "city": "Boston", "year_constructed": 1912, "dome": false, "state": "MA"}, {"country_code": "US", "elevation": "296.9589844", "name": "Fifth Third Bank Stadium", "zip": null, "grass": null, "capacity": 8318, "location": {"y": -84.5676234, "x": 34.0289318}, "id": 4899, "city": "Kennesaw", "year_constructed": 2010, "dome": false, "state": "GA"}, {"country_code": "US", "elevation": "200.1825104", "name": "Finley Stadium", "zip": "37403", "grass": false, "capacity": 20668, "location": {"y": -85.3158835, "x": 35.0363792}, "id": 3720, "city": "Chattanooga", "year_constructed": 1997, "dome": false, "state": "TN"}, {"country_code": "US", "elevation": "81.43208313", "name": "Fisher Field", "zip": "18042", "grass": false, "capacity": 13132, "location": {"y": -75.2106499, "x": 40.7009796}, "id": 3721, "city": "Easton", "year_constructed": 1926, "dome": false, "state": "PA"}, {"country_code": "US", "elevation": "137.3915253", "name": "Fitton Field", "zip": null, "grass": null, "capacity": 23500, "location": {"y": -71.8111424, "x": 42.2403564}, "id": 3722, "city": "Worcester", "year_constructed": 1924, "dome": false, "state": "MA"}, {"country_code": "US", "elevation": "1.718581796", "name": "FIU Stadium", "zip": "33199", "grass": false, "capacity": 23500, "location": {"y": -80.3778912, "x": 25.7525014}, "id": 218, "city": "Miami", "year_constructed": 1995, "dome": false, "state": "FL"}, {"country_code": "US", "elevation": "138.6699677", "name": "Five Star Stadium at the Moye Complex", "zip": null, "grass": null, "capacity": 10200, "location": {"y": -83.6522485, "x": 32.8262075}, "id": 4417, "city": "Macon", "year_constructed": 2013, "dome": false, "state": "GA"}, {"country_code": "US", "elevation": "151.2", "name": "Floyd Casey Stadium", "zip": "76798", "grass": false, "capacity": 50000, "location": null, "id": 3724, "city": "Waco", "year_constructed": 1950, "dome": false, "state": "TX"}, {"country_code": "US", "elevation": "1634.041138", "name": "Folsom Field", "zip": "80309", "grass": false, "capacity": 50183, "location": {"y": -105.266905, "x": 40.0094746}, "id": 3726, "city": "Boulder", "year_constructed": 1924, "dome": false, "state": "CO"}, {"country_code": "US", "elevation": "183.9643707", "name": "Ford Field", "zip": null, "grass": false, "capacity": 65000, "location": {"y": -83.045556, "x": 42.34}, "id": 3727, "city": "Detroit", "year_constructed": 2002, "dome": false, "state": "MI"}, {"country_code": "US", "elevation": "3.147987843", "name": "Foreman Field", "zip": "23551", "grass": false, "capacity": 20118, "location": {"y": -76.3049175, "x": 36.8889533}, "id": 3918, "city": "Norfolk", "year_constructed": 1936, "dome": false, "state": "VA"}, {"country_code": "US", "elevation": "11.71361065", "name": "Franklin Field", "zip": "19104", "grass": false, "capacity": 52593, "location": {"y": -75.1901043, "x": 39.9501475}, "id": 3730, "city": "Philadelphia", "year_constructed": 1895, "dome": false, "state": "PA"}, {"country_code": "US", "elevation": "18.69116974", "name": "Garrison Stadium", "zip": null, "grass": null, "capacity": 5000, "location": {"y": -77.098431, "x": 36.434053}, "id": 5220, "city": "Murfreesboro", "year_constructed": 2007, "dome": false, "state": "TN"}, {"country_code": "US", "elevation": "208.4659576", "name": "Gayle and Tom Benson Stadium", "zip": null, "grass": null, "capacity": 6000, "location": {"y": -98.470014, "x": 29.4674787}, "id": 3734, "city": "San Antonio", "year_constructed": 2008, "dome": false, "state": "TX"}, {"country_code": "US", "elevation": "355.0962524", "name": "Gaylord Family Oklahoma Memorial Stadium", "zip": "73019", "grass": false, "capacity": 84389, "location": {"y": -97.4423145, "x": 35.2058537}, "id": 3835, "city": "Norman", "year_constructed": 1925, "dome": false, "state": "OK"}, {"country_code": "US", "elevation": "303.1637268", "name": "Georgia Dome", "zip": "39901", "grass": false, "capacity": 74228, "location": {"y": -84.4008285, "x": 33.7576897}, "id": 3495, "city": "Atlanta", "year_constructed": 1992, "dome": false, "state": "GA"}, {"country_code": "US", "elevation": "287", "name": "Georgia State Stadium", "zip": "30315", "grass": false, "capacity": 24333, "location": null, "id": 4246, "city": "Atlanta", "year_constructed": 2017, "dome": false, "state": "GA"}, {"country_code": "US", "elevation": "169.4058075", "name": "Gerald J. Ford Stadium", "zip": "75275", "grass": false, "capacity": 32000, "location": {"y": -96.7827859, "x": 32.8377223}, "id": 3735, "city": "University Park", "year_constructed": 2000, "dome": false, "state": "TX"}, {"country_code": "US", "elevation": "231.6300049", "name": "Gibbs Stadium", "zip": null, "grass": null, "capacity": 13000, "location": {"y": -81.9328915, "x": 34.9618606}, "id": 3737, "city": "Spartanburg", "year_constructed": 1996, "dome": false, "state": "SC"}, {"country_code": "US", "elevation": "78.00233459", "name": "Gillette Stadium", "zip": "02035", "grass": false, "capacity": 68756, "location": {"y": -71.2643465, "x": 42.0909458}, "id": 3738, "city": "Foxborough", "year_constructed": 2002, "dome": false, "state": "MA"}, {"country_code": "US", "elevation": "181.4839783", "name": "Glass Bowl", "zip": "43606", "grass": false, "capacity": 26248, "location": {"y": -83.6135652, "x": 41.6574777}, "id": 3739, "city": "Toledo", "year_constructed": 1937, "dome": false, "state": "OH"}, {"country_code": "US", "elevation": "67.71961975", "name": "Golden Lion Stadium", "zip": null, "grass": null, "capacity": 16000, "location": {"y": -92.0214031, "x": 34.253327}, "id": 3740, "city": "Pine Bluff", "year_constructed": 2000, "dome": false, "state": "AR"}, {"country_code": "US", "elevation": "90.32305145", "name": "Goodman Stadium", "zip": "18015", "grass": false, "capacity": 16000, "location": {"y": -75.3553874, "x": 40.5890837}, "id": 3741, "city": "Bethlehem", "year_constructed": 1988, "dome": false, "state": "PA"}, {"country_code": "US", "elevation": "142.8643188", "name": "Governors Stadium", "zip": null, "grass": null, "capacity": 10000, "location": {"y": -87.3525507, "x": 36.5362559}, "id": 3742, "city": "Clarksville", "year_constructed": 1946, "dome": false, "state": "TN"}, {"country_code": "US", "elevation": "124.6879349", "name": "Graham Stadium", "zip": null, "grass": null, "capacity": 8000, "location": {"y": -88.8616245, "x": 36.3448341}, "id": 3748, "city": "Martin", "year_constructed": 1964, "dome": false, "state": "TN"}, {"country_code": "US", "elevation": "180.8555756", "name": "Guaranteed Rate Field", "zip": null, "grass": true, "capacity": 40615, "location": {"y": -87.633889, "x": 41.83}, "id": 4293, "city": "Chicago", "year_constructed": 1991, "dome": false, "state": "IL"}, {"country_code": "US", "elevation": "138.4986725", "name": "Hale Stadium", "zip": null, "grass": null, "capacity": 10000, "location": {"y": -86.826944, "x": 36.168056}, "id": 4029, "city": "Nashville", "year_constructed": 1953, "dome": false, "state": "TN"}, {"country_code": "US", "elevation": "242.8722687", "name": "Hancock Stadium", "zip": null, "grass": null, "capacity": 15000, "location": {"y": -88.9967177, "x": 40.5125091}, "id": 3744, "city": "Normal", "year_constructed": 1963, "dome": false, "state": "IL"}, {"country_code": "US", "elevation": "192.8755646", "name": "Hanson Field", "zip": null, "grass": null, "capacity": 16368, "location": {"y": -90.6841248, "x": 40.4683928}, "id": 3746, "city": "Macomb", "year_constructed": 1950, "dome": false, "state": "IL"}, {"country_code": "US", "elevation": "2.624486446", "name": "Hard Rock Stadium", "zip": "33299", "grass": true, "capacity": 65326, "location": {"y": -80.2388604, "x": 25.9579665}, "id": 3948, "city": "Miami Gardens", "year_constructed": 1987, "dome": false, "state": "FL"}, {"country_code": "US", "elevation": "36.58879089", "name": "Harry Turpin Stadium", "zip": null, "grass": null, "capacity": 15971, "location": {"y": -93.0961357, "x": 31.747259}, "id": 3963, "city": "Natchitoches", "year_constructed": 1976, "dome": false, "state": "LA"}, {"country_code": "US", "elevation": "1.96428895", "name": "Harvard Stadium", "zip": null, "grass": null, "capacity": 30323, "location": {"y": -71.1267511, "x": 42.366704}, "id": 3750, "city": "Boston", "year_constructed": 1903, "dome": false, "state": "MA"}, {"country_code": "US", "elevation": "220.5887146", "name": "Heinz Field", "zip": "15260", "grass": false, "capacity": 68400, "location": {"y": -80.0157603, "x": 40.4467648}, "id": 3752, "city": "Pittsburgh", "year_constructed": 2001, "dome": false, "state": "PA"}, {"country_code": "US", "elevation": "8.543146133", "name": "High Point Solutions Stadium", "zip": "08854", "grass": false, "capacity": 52454, "location": {"y": -74.4655737, "x": 40.5136754}, "id": 3754, "city": "Piscataway", "year_constructed": 1994, "dome": false, "state": "NJ"}, {"country_code": "US", "elevation": "65.4", "name": "Hillsboro Stadium", "zip": null, "grass": null, "capacity": 7600, "location": null, "id": 4765, "city": "Portland", "year_constructed": 1999, "dome": false, "state": "OR"}, {"country_code": "US", "elevation": "1390.252441", "name": "Holt Arena", "zip": null, "grass": false, "capacity": 12000, "location": {"y": -112.4281274, "x": 42.8702052}, "id": 1930, "city": "Pocatello", "year_constructed": 1970, "dome": false, "state": "ID"}, {"country_code": "US", "elevation": "89.99433899", "name": "Homer Bryce Stadium", "zip": null, "grass": null, "capacity": 15000, "location": {"y": -94.6444034, "x": 31.625719}, "id": 3756, "city": "Nacogdoches", "year_constructed": 1973, "dome": false, "state": "TX"}, {"country_code": "US", "elevation": "79.35839844", "name": "Hornet Stadium", "zip": null, "grass": null, "capacity": 26500, "location": {"y": -86.2896902, "x": 32.3642223}, "id": 4582, "city": "Montgomery", "year_constructed": 2012, "dome": false, "state": "AL"}, {"country_code": "US", "elevation": "12.30015659", "name": "Hornet Stadium", "zip": null, "grass": null, "capacity": 21195, "location": {"y": -121.4229607, "x": 38.5556718}, "id": 3757, "city": "Sacramento", "year_constructed": 1969, "dome": false, "state": "CA"}, {"country_code": "US", "elevation": "154.4346619", "name": "Houchens Industries-L. T. Smith Stadium", "zip": "42101", "grass": false, "capacity": 22113, "location": {"y": -86.4594041, "x": 36.9847901}, "id": 3796, "city": "Bowling Green", "year_constructed": 1968, "dome": false, "state": "KY"}, {"country_code": "US", "elevation": "137.7152405", "name": "Houck Stadium", "zip": null, "grass": null, "capacity": 11015, "location": {"y": -89.5313804, "x": 37.3095375}, "id": 3758, "city": "Cape Girardeau", "year_constructed": 1930, "dome": false, "state": "MO"}, {"country_code": "US", "elevation": "67.05336761", "name": "Hughes Stadium", "zip": null, "grass": null, "capacity": 10000, "location": {"y": -76.5829573, "x": 39.3439778}, "id": 3762, "city": "Baltimore", "year_constructed": 1949, "dome": false, "state": "MD"}, {"country_code": "US", "elevation": "11.65622807", "name": "Husky Stadium", "zip": "98195", "grass": false, "capacity": 70500, "location": {"y": -122.3015746, "x": 47.6503235}, "id": 3765, "city": "Seattle", "year_constructed": 1920, "dome": false, "state": "WA"}, {"country_code": "US", "elevation": "19.87884521", "name": "Husky Stadium", "zip": null, "grass": null, "capacity": 5000, "location": {"y": -95.5167353, "x": 29.6949025}, "id": 4424, "city": "Houston", "year_constructed": 2014, "dome": false, "state": "TX"}, {"country_code": "US", "elevation": "78.48539734", "name": "Independence Stadium", "zip": null, "grass": false, "capacity": 49565, "location": {"y": -93.791944, "x": 32.475556}, "id": 3766, "city": "Shreveport", "year_constructed": 1924, "dome": false, "state": "FL"}, {"country_code": "US", "elevation": "72.25324249", "name": "Jack Spinks Stadium", "zip": "39096", "grass": false, "capacity": 22500, "location": {"y": -91.13488, "x": 31.873621}, "id": 3771, "city": "Lorman", "year_constructed": 1992, "dome": false, "state": "MS"}, {"country_code": "US", "elevation": "274.9135437", "name": "Jack Trice Stadium", "zip": "50011", "grass": false, "capacity": 61500, "location": {"y": -93.6357716, "x": 42.0139977}, "id": 3772, "city": "Ames", "year_constructed": 1975, "dome": false, "state": "IA"}, {"country_code": "US", "elevation": "37.3", "name": "Jahna Field", "zip": null, "grass": null, "capacity": 0, "location": null, "id": 4752, "city": "Winter Haven", "year_constructed": null, "dome": false, "state": "FL"}, {"country_code": "US", "elevation": "228.1033936", "name": "Jayne Stadium", "zip": null, "grass": null, "capacity": 10000, "location": {"y": -83.4253315, "x": 38.1916481}, "id": 3774, "city": "Morehead", "year_constructed": 1964, "dome": false, "state": "KY"}, {"country_code": "US", "elevation": "190.365509", "name": "Jerry Richardson Stadium", "zip": null, "grass": false, "capacity": 15314, "location": {"y": -80.7401194, "x": 35.3105033}, "id": 4418, "city": "Charlotte", "year_constructed": 2013, "dome": false, "state": "NC"}, {"country_code": "US", "elevation": "177.8676453", "name": "Jim Wacker Field at Bobcat Stadium", "zip": "78666", "grass": false, "capacity": 30000, "location": {"y": -97.9255735, "x": 29.8910008}, "id": 3644, "city": "San Marcos", "year_constructed": 1981, "dome": false, "state": "TX"}, {"country_code": "US", "elevation": "163.7328186", "name": "Joan C. Edwards Stadium", "zip": "25755", "grass": false, "capacity": 38019, "location": {"y": -82.4214412, "x": 38.4247042}, "id": 3775, "city": "Huntington", "year_constructed": 1991, "dome": false, "state": "WV"}, {"country_code": "US", "elevation": "72.87982941", "name": "Joe Aillet Stadium", "zip": "71272", "grass": false, "capacity": 28019, "location": {"y": -92.6560019, "x": 32.5321487}, "id": 3776, "city": "Ruston", "year_constructed": 1968, "dome": false, "state": "LA"}, {"country_code": "US", "elevation": "351.4482422", "name": "Joe Walton Stadium", "zip": null, "grass": null, "capacity": 3000, "location": {"y": -80.2159227, "x": 40.521046}, "id": 3777, "city": "Moon Township", "year_constructed": 2005, "dome": false, "state": "PA"}, {"country_code": "US", "elevation": "385.9", "name": "John F. Kennedy Stadium", "zip": null, "grass": null, "capacity": 5200, "location": null, "id": 3778, "city": "Springfield", "year_constructed": 1957, "dome": false, "state": "MO"}, {"country_code": "US", "elevation": "191.7279816", "name": "Johnny Red\"\" Floyd Stadium\"\"", "zip": "37132", "grass": false, "capacity": 31000, "location": {"y": -86.3681649, "x": 35.8511463}, "id": 3725, "city": "Murfreesboro", "year_constructed": 1933, "dome": false, "state": "TN"}, {"country_code": "US", "elevation": "117.6974106", "name": "Johnny Unitas Stadium", "zip": null, "grass": null, "capacity": 11000, "location": {"y": -76.6159716, "x": 39.3885683}, "id": 3781, "city": "Towson", "year_constructed": 1978, "dome": false, "state": "MD"}, {"country_code": "US", "elevation": "9.57440567", "name": "John O'Quinn Field at TDECU Stadium", "zip": null, "grass": false, "capacity": 40000, "location": {"y": -95.3491623, "x": 29.7219885}, "id": 4728, "city": "Houston", "year_constructed": 2014, "dome": false, "state": "TX"}, {"country_code": "US", "elevation": "4.137742996", "name": "Johnson Hagood Stadium", "zip": null, "grass": null, "capacity": 21000, "location": {"y": -79.9558183, "x": 32.7936975}, "id": 3782, "city": "Charleston", "year_constructed": 1948, "dome": false, "state": "SC"}, {"country_code": "US", "elevation": "980.7632446", "name": "Jones AT&T Stadium", "zip": "79409", "grass": false, "capacity": 60862, "location": {"y": -101.8728824, "x": 33.5910518}, "id": 3784, "city": "Lubbock", "year_constructed": 1947, "dome": false, "state": "TX"}, {"country_code": "US", "elevation": "201.1737976", "name": "Jordan-Hare Stadium", "zip": "36849", "grass": false, "capacity": 87451, "location": {"y": -85.4897479, "x": 32.6025532}, "id": 3785, "city": "Auburn", "year_constructed": 1939, "dome": false, "state": "AL"}, {"country_code": "US", "elevation": "198.0679016", "name": "JSU Stadium", "zip": null, "grass": null, "capacity": 24000, "location": {"y": -85.76647, "x": 33.8201052}, "id": 3662, "city": "Jacksonville", "year_constructed": 1947, "dome": false, "state": "AL"}, {"country_code": "US", "elevation": "240.9007721", "name": "Kelly/Shorts Stadium", "zip": "48859", "grass": false, "capacity": 32885, "location": {"y": -84.7709904, "x": 43.5777313}, "id": 3786, "city": "Mount Pleasant", "year_constructed": 1972, "dome": false, "state": "MI"}, {"country_code": "US", "elevation": "127.7569809", "name": "Kenan Memorial Stadium", "zip": "27515", "grass": false, "capacity": 62980, "location": {"y": -79.0478889, "x": 35.9069294}, "id": 3787, "city": "Chapel Hill", "year_constructed": 1927, "dome": false, "state": "NC"}, {"country_code": "US", "elevation": "32.63183975", "name": "Kenneth P. LaValle Stadium", "zip": null, "grass": null, "capacity": 8200, "location": {"y": -73.1242966, "x": 40.9188829}, "id": 3788, "city": "Stony Brook", "year_constructed": 2002, "dome": false, "state": "NY"}, {"country_code": "US", "elevation": "544.1551514", "name": "Kermit Tipton Stadium", "zip": null, "grass": null, "capacity": 6600, "location": {"y": -82.3710142, "x": 36.3269334}, "id": 4900, "city": "Johnson City", "year_constructed": 2010, "dome": false, "state": "TN"}, {"country_code": "US", "elevation": "9.979202271", "name": "Kessler Field", "zip": null, "grass": null, "capacity": 4000, "location": {"y": -74.0092635, "x": 40.279379}, "id": 3790, "city": "West Long Branch", "year_constructed": 1993, "dome": false, "state": "NJ"}, {"country_code": "US", "elevation": "9.9", "name": "Kessler Stadium", "zip": null, "grass": null, "capacity": 4200, "location": null, "id": 5389, "city": "West Long Branch", "year_constructed": 1993, "dome": false, "state": "NJ"}, {"country_code": "US", "elevation": "794.4794922", "name": "Kibbie Dome", "zip": "83843", "grass": false, "capacity": 16000, "location": {"y": -117.0173713, "x": 46.7262921}, "id": 3791, "city": "Moscow", "year_constructed": 1975, "dome": false, "state": "ID"}, {"country_code": "US", "elevation": "991.3414307", "name": "Kidd Brewer Stadium", "zip": "28608", "grass": false, "capacity": 24050, "location": {"y": -81.6854278, "x": 36.2114267}, "id": 3792, "city": "Boone", "year_constructed": 1962, "dome": false, "state": "NC"}, {"country_code": "US", "elevation": "220.6357727", "name": "Kinnick Stadium", "zip": "52242", "grass": false, "capacity": 70585, "location": {"y": -91.5510829, "x": 41.6586045}, "id": 3793, "city": "Iowa City", "year_constructed": 1929, "dome": false, "state": "IA"}, {"country_code": "US", "elevation": "108.824585", "name": "Kyle Field", "zip": "77843", "grass": false, "capacity": 102733, "location": {"y": -96.3403828, "x": 30.6098891}, "id": 3795, "city": "College Station", "year_constructed": 1927, "dome": false, "state": "TX"}, {"country_code": "US", "elevation": "9.828813553", "name": "Ladd Peebles Stadium", "zip": "36695", "grass": false, "capacity": 33471, "location": {"y": -88.0755704, "x": 30.6730374}, "id": 3797, "city": "Mobile", "year_constructed": 1948, "dome": false, "state": "AL"}, {"country_code": "US", "elevation": "192.3498077", "name": "Lambeau Field", "zip": null, "grass": true, "capacity": 80735, "location": {"y": -88.062273, "x": 44.50131}, "id": 3798, "city": "Greenbay", "year_constructed": 1957, "dome": false, "state": "WI"}, {"country_code": "US", "elevation": "632.2631226", "name": "Lane Stadium", "zip": "24061", "grass": false, "capacity": 66233, "location": {"y": -80.4180643, "x": 37.2199873}, "id": 3799, "city": "Blacksburg", "year_constructed": 1965, "dome": false, "state": "VA"}, {"country_code": "US", "elevation": "1412.097046", "name": "LaVell Edwards Stadium", "zip": "84602", "grass": false, "capacity": 63725, "location": {"y": -111.6545247, "x": 40.2575347}, "id": 3801, "city": "Provo", "year_constructed": 1964, "dome": false, "state": "UT"}, {"country_code": "US", "elevation": "10.95070267", "name": "Lawrence A. Wien Stadium", "zip": null, "grass": null, "capacity": 17000, "location": {"y": -73.9164594, "x": 40.8732697}, "id": 3802, "city": "Manhattan", "year_constructed": 1984, "dome": false, "state": "NY"}, {"country_code": "US", "elevation": "174.6382141", "name": "Legion Field", "zip": "35294", "grass": false, "capacity": 71594, "location": {"y": -86.842778, "x": 33.511389}, "id": 3803, "city": "Birmingham", "year_constructed": 1927, "dome": false, "state": "AL"}, {"country_code": "US", "elevation": "24.94474983", "name": "Leonidoff Field", "zip": null, "grass": null, "capacity": 5000, "location": {"y": -73.9329549, "x": 41.7191409}, "id": 36, "city": "Poughkeepsie", "year_constructed": 1968, "dome": false, "state": "NY"}, {"country_code": "US", "elevation": "4.531901836", "name": "Levi's Stadium", "zip": null, "grass": false, "capacity": 68500, "location": {"y": -121.97, "x": 37.403}, "id": 4738, "city": "Santa Clara", "year_constructed": 2014, "dome": false, "state": "CA"}, {"country_code": "US", "elevation": "90.62445831", "name": "Liberty Bowl Memorial Stadium", "zip": "38152", "grass": false, "capacity": 62380, "location": {"y": -89.977147, "x": 35.1209429}, "id": 3805, "city": "Memphis", "year_constructed": 1965, "dome": false, "state": "TN"}, {"country_code": "US", "elevation": "3.198706865", "name": "Lincoln Financial Field", "zip": "19122", "grass": false, "capacity": 68532, "location": {"y": -75.1675414, "x": 39.9007995}, "id": 3806, "city": "Philadelphia", "year_constructed": 2003, "dome": false, "state": "PA"}, {"country_code": "US", "elevation": "42.50374222", "name": "Los Angeles Memorial Coliseum", "zip": "90089", "grass": true, "capacity": 93607, "location": {"y": -118.287778, "x": 34.014167}, "id": 477, "city": "Los Angeles", "year_constructed": 1923, "dome": false, "state": "CA"}, {"country_code": "US", "elevation": "214.9181061", "name": "Louis Crews Stadium", "zip": null, "grass": null, "capacity": 21000, "location": {"y": -86.5784132, "x": 34.7835363}, "id": 3809, "city": "Huntsville", "year_constructed": 1996, "dome": false, "state": "AL"}, {"country_code": "US", "elevation": "205.8", "name": "Lubbers Stadium", "zip": null, "grass": null, "capacity": 10444, "location": null, "id": 3811, "city": "Allendale", "year_constructed": 1973, "dome": false, "state": "MI"}, {"country_code": "US", "elevation": "216.3370361", "name": "Lucas Oil Stadium", "zip": "46225", "grass": false, "capacity": 70000, "location": {"y": -86.163806, "x": 39.760056}, "id": 3812, "city": "Indianapolis", "year_constructed": 2008, "dome": false, "state": "IN"}, {"country_code": "US", "elevation": "1406.57605", "name": "Mackay Stadium", "zip": "89557", "grass": false, "capacity": 26000, "location": {"y": -119.8175435, "x": 39.5469459}, "id": 3816, "city": "Reno", "year_constructed": 1966, "dome": false, "state": "NV"}, {"country_code": "US", "elevation": "22.998209", "name": "Malone Stadium", "zip": "71209", "grass": false, "capacity": 30427, "location": {"y": -92.0660602, "x": 32.5308089}, "id": 3817, "city": "Monroe", "year_constructed": 1978, "dome": false, "state": "LA"}, {"country_code": "US", "elevation": "3.23726368", "name": "Manning Field at John L. Guidry Stadium", "zip": null, "grass": null, "capacity": 10500, "location": {"y": -90.80455, "x": 29.7867254}, "id": 3779, "city": "Thibodaux", "year_constructed": 1972, "dome": false, "state": "LA"}, {"country_code": "US", "elevation": "1.853350639", "name": "Marlins Park", "zip": null, "grass": true, "capacity": 34000, "location": {"y": -80.219722, "x": 25.778056}, "id": 4223, "city": "Miami", "year_constructed": 2012, "dome": false, "state": "FL"}, {"country_code": "US", "elevation": "773.9526367", "name": "Martin Stadium", "zip": "99164", "grass": false, "capacity": 32248, "location": {"y": -117.1604991, "x": 46.731831}, "id": 3820, "city": "Pullman", "year_constructed": 1972, "dome": false, "state": "WA"}, {"country_code": "US", "elevation": "32.68748093", "name": "Maryland Stadium", "zip": "20742", "grass": false, "capacity": 51802, "location": {"y": -76.9473792, "x": 38.9903332}, "id": 3665, "city": "College Park", "year_constructed": 1950, "dome": false, "state": "MD"}, {"country_code": "US", "elevation": "117.0538101", "name": "McLane Stadium", "zip": null, "grass": false, "capacity": 45140, "location": {"y": -97.1156702, "x": 31.5582015}, "id": 4727, "city": "Waco", "year_constructed": 2014, "dome": false, "state": "TX"}, {"country_code": "US", "elevation": "32.68801498", "name": "Meade Stadium", "zip": null, "grass": null, "capacity": 5180, "location": {"y": -71.5347458, "x": 41.4879984}, "id": 3824, "city": "Kingston", "year_constructed": 1928, "dome": false, "state": "RI"}, {"country_code": "US", "elevation": "152.3080139", "name": "Memorial Field", "zip": null, "grass": null, "capacity": 15000, "location": {"y": -72.2842781, "x": 43.701302}, "id": 3826, "city": "Hanover", "year_constructed": 1923, "dome": false, "state": "NH"}, {"country_code": "US", "elevation": "354.9318848", "name": "Memorial Stadium", "zip": "68588", "grass": false, "capacity": 86047, "location": {"y": -96.705594, "x": 40.820682}, "id": 3834, "city": "Lincoln", "year_constructed": 1923, "dome": false, "state": "NE"}, {"country_code": "US", "elevation": "155.5213165", "name": "Memorial Stadium", "zip": "47809", "grass": false, "capacity": 12464, "location": {"y": -87.3669599, "x": 39.4746858}, "id": 3829, "city": "Terre Haute", "year_constructed": 1925, "dome": false, "state": "IN"}, {"country_code": "US", "elevation": "205.6452179", "name": "Memorial Stadium", "zip": "29634", "grass": false, "capacity": 81500, "location": {"y": -82.8432428, "x": 34.6787737}, "id": 3836, "city": "Clemson", "year_constructed": 1942, "dome": false, "state": "SC"}, {"country_code": "US", "elevation": "231.6500854", "name": "Memorial Stadium", "zip": "47408", "grass": false, "capacity": 52959, "location": {"y": -86.5256217, "x": 39.1808959}, "id": 3830, "city": "Bloomington", "year_constructed": 1960, "dome": false, "state": "IN"}, {"country_code": "US", "elevation": "274.855957", "name": "Memorial Stadium", "zip": "66045", "grass": false, "capacity": 50071, "location": {"y": -95.2463686, "x": 38.9629418}, "id": 3833, "city": "Lawrence", "year_constructed": 1921, "dome": false, "state": "KS"}, {"country_code": "US", "elevation": "223.2471619", "name": "Memorial Stadium", "zip": "61820", "grass": false, "capacity": 60670, "location": {"y": -88.2359569, "x": 40.0993268}, "id": 3832, "city": "Champaign", "year_constructed": 1923, "dome": false, "state": "IL"}, {"country_code": "US", "elevation": "307.9", "name": "Mercedes-Benz Stadium", "zip": "30313", "grass": false, "capacity": 71000, "location": null, "id": 5348, "city": "Atlanta", "year_constructed": 2017, "dome": false, "state": "GA"}, {"country_code": "US", "elevation": "0.508185744", "name": "Mercedes-Benz Superdome", "zip": "70112", "grass": false, "capacity": 76468, "location": {"y": -90.081111, "x": 29.950833}, "id": 3493, "city": "New Orleans", "year_constructed": 1975, "dome": false, "state": "LA"}, {"country_code": "US", "elevation": "1.68149209", "name": "MetLife Stadium", "zip": null, "grass": false, "capacity": 82566, "location": {"y": -74.074444, "x": 40.813611}, "id": 3839, "city": "East Rutherford", "year_constructed": 2010, "dome": false, "state": "NJ"}, {"country_code": "US", "elevation": "255.5500031", "name": "Michigan Stadium", "zip": "48109", "grass": false, "capacity": 107601, "location": {"y": -83.7486956, "x": 42.2658365}, "id": 3558, "city": "Ann Arbor", "year_constructed": 1927, "dome": false, "state": "MI"}, {"country_code": "US", "elevation": "108.4067383", "name": "Mississippi Veterans Memorial Stadium", "zip": null, "grass": null, "capacity": 60492, "location": {"y": -90.1795578, "x": 32.3300053}, "id": 3976, "city": "Jackson", "year_constructed": 1941, "dome": false, "state": "MS"}, {"country_code": "US", "elevation": "64.52726746", "name": "M. M. Roberts Stadium", "zip": "39402", "grass": false, "capacity": 36000, "location": {"y": -89.3318118, "x": 31.3289321}, "id": 3815, "city": "Hattiesburg", "year_constructed": 1932, "dome": false, "state": "MS"}, {"country_code": "US", "elevation": "351.6", "name": "Moretz Stadium", "zip": null, "grass": null, "capacity": 8500, "location": null, "id": 4014, "city": "Hickory", "year_constructed": 1924, "dome": false, "state": "NC"}, {"country_code": "US", "elevation": "327.409668", "name": "Mountaineer Field at Milan Puskar Stadium", "zip": "26507", "grass": false, "capacity": 60000, "location": {"y": -79.9551873, "x": 39.6502744}, "id": 3842, "city": "Morgantown", "year_constructed": 1980, "dome": false, "state": "WV"}, {"country_code": "US", "elevation": "2.961556435", "name": "M&T Bank Stadium", "zip": null, "grass": false, "capacity": 71008, "location": {"y": -76.622778, "x": 39.278056}, "id": 3814, "city": "Baltimore", "year_constructed": 1998, "dome": false, "state": "MD"}, {"country_code": "US", "elevation": "203.4", "name": "Multi-Sport Stadium", "zip": null, "grass": null, "capacity": 1200, "location": null, "id": 3848, "city": "Worcester", "year_constructed": 2005, "dome": false, "state": "MA"}, {"country_code": "US", "elevation": "9.516305923", "name": "Municipal Stadium", "zip": "32114", "grass": false, "capacity": 10000, "location": {"y": -81.117511, "x": 29.173466}, "id": 3850, "city": "Daytona Beach", "year_constructed": 1979, "dome": false, "state": "FL"}, {"country_code": "US", "elevation": "154", "name": "Mustang Stadium", "zip": null, "grass": null, "capacity": 3500, "location": null, "id": 3851, "city": "Stevenson", "year_constructed": 2012, "dome": false, "state": "MD"}, {"country_code": "US", "elevation": "10.74990082", "name": "Navy-Marine Corps Memorial Stadium", "zip": "21402", "grass": true, "capacity": 34000, "location": {"y": -76.5076335, "x": 38.9846985}, "id": 3852, "city": "Annapolis", "year_constructed": 1959, "dome": false, "state": "MD"}, {"country_code": "US", "elevation": "282.0274963", "name": "New Turner Stadium", "zip": null, "grass": null, "capacity": 4400, "location": {"y": -85.501181, "x": 40.456848}, "id": 5083, "city": "Upland", "year_constructed": 2012, "dome": false, "state": "IN"}, {"country_code": "US", "elevation": "271.9517212", "name": "Neyland Stadium", "zip": "37996", "grass": false, "capacity": 102455, "location": {"y": -83.9250128, "x": 35.9550131}, "id": 3853, "city": "Knoxville", "year_constructed": 1921, "dome": false, "state": "TN"}, {"country_code": "US", "elevation": "230.0660553", "name": "Nippert Stadium", "zip": "45221", "grass": false, "capacity": 40000, "location": {"y": -84.5161913, "x": 39.1312495}, "id": 3854, "city": "Cincinnati", "year_constructed": 1915, "dome": false, "state": "OH"}, {"country_code": "US", "elevation": "121.0412598", "name": "Nissan Stadium", "zip": "37209", "grass": false, "capacity": 68798, "location": {"y": -86.7712898, "x": 36.166479}, "id": 3810, "city": "Nashville", "year_constructed": 1999, "dome": false, "state": "TN"}, {"country_code": "US", "elevation": "222.645401", "name": "Notre Dame Stadium", "zip": "46556", "grass": false, "capacity": 80795, "location": {"y": -86.2339425, "x": 41.698378}, "id": 3855, "city": "Notre Dame", "year_constructed": 1930, "dome": false, "state": "IN"}, {"country_code": "US", "elevation": "1455.349976", "name": "Nottingham Field", "zip": null, "grass": null, "capacity": 8533, "location": {"y": -104.705139, "x": 40.403493}, "id": 3856, "city": "Greeley", "year_constructed": 1995, "dome": false, "state": "CO"}, {"country_code": "US", "elevation": "15.19169617", "name": "NRG Stadium", "zip": "77054", "grass": true, "capacity": 72220, "location": {"y": -95.410833, "x": 29.684722}, "id": 3891, "city": "Houston", "year_constructed": 2002, "dome": false, "state": "TX"}, {"country_code": "US", "elevation": "212.9662933", "name": "O'Brien Stadium", "zip": null, "grass": null, "capacity": 10000, "location": {"y": -88.1811618, "x": 39.4804965}, "id": 3858, "city": "Charleston", "year_constructed": 1970, "dome": false, "state": "IL"}, {"country_code": "US", "elevation": "216.6770325", "name": "Ohio Stadium", "zip": "43210", "grass": false, "capacity": 104944, "location": {"y": -83.0197266, "x": 40.0016447}, "id": 3861, "city": "Columbus", "year_constructed": 1922, "dome": false, "state": "OH"}, {"country_code": "US", "elevation": "96.73323059", "name": "O'Kelly-Riddick Stadium", "zip": null, "grass": null, "capacity": 10000, "location": {"y": -78.896969, "x": 35.9738646}, "id": 3862, "city": "Durham", "year_constructed": 1975, "dome": false, "state": "NC"}, {"country_code": "US", "elevation": "67.29846191", "name": "Oliver C. Dawson Stadium", "zip": null, "grass": null, "capacity": 22000, "location": {"y": -80.8446857, "x": 33.4986313}, "id": 3864, "city": "Orangeburg", "year_constructed": 1955, "dome": false, "state": "SC"}, {"country_code": "US", "elevation": "303.2829285", "name": "Paladin Stadium", "zip": null, "grass": null, "capacity": 16000, "location": {"y": -82.4370917, "x": 34.920192}, "id": 3868, "city": "Greenville", "year_constructed": 1981, "dome": false, "state": "SC"}, {"country_code": "US", "elevation": "77.36286926", "name": "Panther Stadium", "zip": null, "grass": null, "capacity": 15000, "location": {"y": -95.9960913, "x": 30.0937874}, "id": 5238, "city": "Prairie View", "year_constructed": 2016, "dome": false, "state": "TX"}, {"country_code": "US", "elevation": "138.5615997", "name": "Papa John's Cardinal Stadium", "zip": "40292", "grass": false, "capacity": 55000, "location": {"y": -85.7588141, "x": 38.2057621}, "id": 3873, "city": "Louisville", "year_constructed": 1998, "dome": false, "state": "KY"}, {"country_code": "US", "elevation": "146.3", "name": "Paul Brown Stadium", "zip": null, "grass": false, "capacity": 66515, "location": null, "id": 3874, "city": "Cincinnati", "year_constructed": 2000, "dome": false, "state": "OH"}, {"country_code": "US", "elevation": "61.25376892", "name": "Paulson Stadium", "zip": "30460", "grass": false, "capacity": 24300, "location": {"y": -81.7849296, "x": 32.4122471}, "id": 3608, "city": "Statesboro", "year_constructed": 1984, "dome": false, "state": "GA"}, {"country_code": "US", "elevation": "194.230896", "name": "Peden Stadium", "zip": "45701", "grass": false, "capacity": 24000, "location": {"y": -82.1034315, "x": 39.3212794}, "id": 3876, "city": "Athens", "year_constructed": 1929, "dome": false, "state": "OH"}, {"country_code": "US", "elevation": "402.368103", "name": "Plaster Sports Complex", "zip": null, "grass": null, "capacity": 17500, "location": {"y": -93.2798119, "x": 37.1976229}, "id": 3878, "city": "Springfield", "year_constructed": 1941, "dome": false, "state": "MO"}, {"country_code": "US", "elevation": "32.00296402", "name": "Princeton University Stadium", "zip": null, "grass": null, "capacity": 27800, "location": {"y": -74.6500047, "x": 40.3457928}, "id": 3881, "city": "Princeton", "year_constructed": 1998, "dome": false, "state": "NJ"}, {"country_code": "US", "elevation": "23.84255791", "name": "Providence Park", "zip": null, "grass": null, "capacity": 19566, "location": {"y": -122.6916811, "x": 45.5215978}, "id": 3485, "city": "Portland", "year_constructed": 1926, "dome": false, "state": "OR"}, {"country_code": "US", "elevation": "3.981505394", "name": "Provost Umphrey Stadium", "zip": null, "grass": null, "capacity": 16000, "location": {"y": -94.069963, "x": 30.04313}, "id": 3882, "city": "Beaumont", "year_constructed": 1964, "dome": false, "state": "TX"}, {"country_code": "US", "elevation": "16.28476334", "name": "Qualcomm Stadium", "zip": "92108", "grass": false, "capacity": 70561, "location": {"y": -117.1195716, "x": 32.7831122}, "id": 3932, "city": "San Diego", "year_constructed": 1967, "dome": false, "state": "CA"}, {"country_code": "US", "elevation": "11.07972908", "name": "Raymond James Stadium", "zip": "33620", "grass": false, "capacity": 65857, "location": {"y": -82.5033344, "x": 27.9758691}, "id": 3886, "city": "Tampa", "year_constructed": 1998, "dome": false, "state": "FL"}, {"country_code": "US", "elevation": "7", "name": "Reinhart Field", "zip": null, "grass": null, "capacity": 3500, "location": null, "id": 3889, "city": "Bronx", "year_constructed": 2012, "dome": false, "state": "NY"}, {"country_code": "US", "elevation": "6.515614986", "name": "Rentschler Field", "zip": "6118 ", "grass": false, "capacity": 40000, "location": {"y": -72.6187728, "x": 41.7595675}, "id": 3892, "city": "East Hartford", "year_constructed": 2003, "dome": false, "state": "CT"}, {"country_code": "US", "elevation": "66.90744781", "name": "Reser Stadium", "zip": "97331", "grass": false, "capacity": 45674, "location": {"y": -123.2814341, "x": 44.5594559}, "id": 3893, "city": "Corvallis", "year_constructed": 1953, "dome": false, "state": "OR"}, {"country_code": "US", "elevation": "3.029993296", "name": "RFK Stadium", "zip": null, "grass": null, "capacity": 45596, "location": {"y": -76.971809, "x": 38.88981}, "id": 3491, "city": "Washington", "year_constructed": 1961, "dome": false, "state": "DC"}, {"country_code": "US", "elevation": "204.2487793", "name": "Rhodes Stadium", "zip": null, "grass": null, "capacity": 11250, "location": {"y": -79.5079979, "x": 36.1101269}, "id": 3894, "city": "Elon", "year_constructed": 2001, "dome": false, "state": "NC"}, {"country_code": "US", "elevation": "1411.543579", "name": "Rice-Eccles Stadium", "zip": "84112", "grass": false, "capacity": 45807, "location": {"y": -111.8488255, "x": 40.7599724}, "id": 587, "city": "Salt Lake City", "year_constructed": 1998, "dome": false, "state": "UT"}, {"country_code": "US", "elevation": "7.148301601", "name": "Rice Stadium", "zip": "77251", "grass": false, "capacity": 47000, "location": {"y": -95.4093261, "x": 29.7163297}, "id": 3895, "city": "Houston", "year_constructed": 1950, "dome": false, "state": "TX"}, {"country_code": "US", "elevation": "39.88368607", "name": "Rice-Totten Field", "zip": null, "grass": null, "capacity": 10000, "location": {"y": -90.3397718, "x": 33.5118304}, "id": 3896, "city": "Itta Bena", "year_constructed": 1958, "dome": false, "state": "MS"}, {"country_code": "US", "elevation": "249.4658203", "name": "Richardson Stadium", "zip": null, "grass": null, "capacity": 6000, "location": {"y": -80.8428419, "x": 35.4995744}, "id": 3897, "city": "Davidson", "year_constructed": 1923, "dome": false, "state": "NC"}, {"country_code": "US", "elevation": "9.6", "name": "Robertson Stadium", "zip": "77004", "grass": false, "capacity": 32000, "location": null, "id": 453, "city": "Houston", "year_constructed": 1942, "dome": false, "state": "TX"}, {"country_code": "US", "elevation": "1427.914429", "name": "Romney Stadium", "zip": "84322", "grass": false, "capacity": 25513, "location": {"y": -111.8116007, "x": 41.7517394}, "id": 3905, "city": "Logan", "year_constructed": 1968, "dome": false, "state": "UT"}, {"country_code": "US", "elevation": "750.2774658", "name": "Roos Field", "zip": null, "grass": null, "capacity": 8600, "location": {"y": -117.587353, "x": 47.49278}, "id": 3906, "city": "Cheney", "year_constructed": 1967, "dome": false, "state": "WA"}, {"country_code": "US", "elevation": "245.1772461", "name": "Rose Bowl", "zip": "90095", "grass": false, "capacity": 92542, "location": {"y": -118.1676462, "x": 34.1613284}, "id": 1056, "city": "Pasadena", "year_constructed": 1922, "dome": false, "state": "CA"}, {"country_code": "US", "elevation": "197.5337677", "name": "Ross-Ade Stadium", "zip": "47907", "grass": false, "capacity": 57236, "location": {"y": -86.9186843, "x": 40.4352253}, "id": 3907, "city": "West Lafayette", "year_constructed": 1924, "dome": false, "state": "IN"}, {"country_code": "US", "elevation": "298.1834717", "name": "Roy Kidd Stadium", "zip": "40475", "grass": false, "capacity": 20000, "location": {"y": -84.2972854, "x": 37.7344109}, "id": 3908, "city": "Richmond", "year_constructed": 1969, "dome": false, "state": "KY"}, {"country_code": "US", "elevation": "152.6495667", "name": "Roy Stewart Stadium", "zip": null, "grass": null, "capacity": 16800, "location": {"y": -88.3175531, "x": 36.6215165}, "id": 3909, "city": "Murray", "year_constructed": 1973, "dome": false, "state": "KY"}, {"country_code": "US", "elevation": "181.2376099", "name": "Ryan Field", "zip": "60208", "grass": false, "capacity": 47130, "location": {"y": -87.6924751, "x": 42.0653994}, "id": 3911, "city": "Evanston", "year_constructed": 1926, "dome": false, "state": "IL"}, {"country_code": "US", "elevation": "241.248764", "name": "Rynearson Stadium", "zip": "48197", "grass": false, "capacity": 30200, "location": {"y": -83.647285, "x": 42.256126}, "id": 3912, "city": "Ypsilanti", "year_constructed": 1969, "dome": false, "state": "MI"}, {"country_code": "US", "elevation": "126.7586365", "name": "Saluki Stadium", "zip": null, "grass": null, "capacity": 15276, "location": {"y": -89.216212, "x": 37.708637}, "id": 3913, "city": "Carbondale", "year_constructed": 2010, "dome": false, "state": "IL"}, {"country_code": "US", "elevation": "490.0622253", "name": "Sam Boyd Stadium", "zip": "89154", "grass": false, "capacity": 36800, "location": {"y": -115.01731, "x": 36.085935}, "id": 3914, "city": "Whitney", "year_constructed": 1971, "dome": false, "state": "NV"}, {"country_code": "US", "elevation": "186.1120758", "name": "Sanford Stadium", "zip": "30602", "grass": false, "capacity": 92746, "location": {"y": -83.3733813, "x": 33.9498197}, "id": 3917, "city": "Athens", "year_constructed": 1929, "dome": false, "state": "GA"}, {"country_code": "US", "elevation": "285.481781", "name": "Scheumann Stadium", "zip": "47306", "grass": false, "capacity": 22500, "location": {"y": -85.4161148, "x": 40.2159422}, "id": 3919, "city": "Muncie", "year_constructed": 1967, "dome": false, "state": "IN"}, {"country_code": "US", "elevation": "257.3187561", "name": "Schoellkopf Field", "zip": null, "grass": null, "capacity": 25597, "location": {"y": -76.4785398, "x": 42.4439016}, "id": 3921, "city": "Ithaca", "year_constructed": 1915, "dome": false, "state": "NY"}, {"country_code": "US", "elevation": "170.4677429", "name": "Scott Stadium", "zip": "22904", "grass": false, "capacity": 61500, "location": {"y": -78.5137897, "x": 38.0311801}, "id": 3923, "city": "Charlottesville", "year_constructed": 1931, "dome": false, "state": "VA"}, {"country_code": "US", "elevation": "208.0207825", "name": "Seibert Stadium", "zip": "35229", "grass": false, "capacity": 6700, "location": {"y": -86.795326, "x": 33.463273}, "id": 3925, "city": "Homewood", "year_constructed": 1958, "dome": false, "state": "AL"}, {"country_code": "US", "elevation": "160.5950775", "name": "Setzler Field", "zip": null, "grass": null, "capacity": 4000, "location": {"y": -81.622539, "x": 34.286133}, "id": 3926, "city": "Newberry", "year_constructed": 1922, "dome": false, "state": "SC"}, {"country_code": "US", "elevation": "530.4555664", "name": "Shotwell Stadium", "zip": null, "grass": null, "capacity": 15075, "location": {"y": -99.6986246, "x": 32.4336917}, "id": 3928, "city": "Abilene", "year_constructed": 1959, "dome": false, "state": "TX"}, {"country_code": "US", "elevation": "235.5928345", "name": "Skelly Field at H. A. Chapman Stadium", "zip": "74194", "grass": false, "capacity": 30000, "location": {"y": -95.9437853, "x": 36.1489175}, "id": 3674, "city": "Tulsa", "year_constructed": 1930, "dome": false, "state": "OK"}, {"country_code": "US", "elevation": "177.420578", "name": "Soldier Field", "zip": "60605", "grass": true, "capacity": 61500, "location": {"y": -87.616667, "x": 41.8625}, "id": 3933, "city": "Chicago", "year_constructed": 1924, "dome": false, "state": "IL"}, {"country_code": "US", "elevation": "1574.920898", "name": "Sonny Lubick Field at Hughes Stadium", "zip": "80526", "grass": false, "capacity": 34400, "location": {"y": -105.1416248, "x": 40.5621183}, "id": 3761, "city": "Fort Collins", "year_constructed": 1968, "dome": false, "state": "CO"}, {"country_code": "US", "elevation": "28.30708694", "name": "Spartan Stadium", "zip": "95112", "grass": false, "capacity": 30456, "location": {"y": -121.8682962, "x": 37.3196675}, "id": 3935, "city": "San Jose", "year_constructed": 1933, "dome": false, "state": "CA"}, {"country_code": "US", "elevation": "254.8794861", "name": "Spartan Stadium", "zip": "48824", "grass": false, "capacity": 75005, "location": {"y": -84.4848526, "x": 42.7281474}, "id": 3936, "city": "East Lansing", "year_constructed": 1923, "dome": false, "state": "MI"}, {"country_code": "US", "elevation": "14.65544891", "name": "Spec Martin Municipal Stadium", "zip": null, "grass": null, "capacity": 6000, "location": {"y": -81.2993746, "x": 29.0208575}, "id": 4416, "city": "DeLand", "year_constructed": 1941, "dome": false, "state": "FL"}, {"country_code": "US", "elevation": "1583.532593", "name": "Sports Authority Field at Mile High", "zip": "80204", "grass": true, "capacity": 76273, "location": {"y": -105.02, "x": 39.743889}, "id": 3937, "city": "Denver", "year_constructed": 2001, "dome": false, "state": "CO"}, {"country_code": "US", "elevation": "298.8893127", "name": "Stambaugh Stadium", "zip": null, "grass": null, "capacity": 20650, "location": {"y": -80.6501885, "x": 41.1092964}, "id": 844, "city": "Youngstown", "year_constructed": 1982, "dome": false, "state": "OH"}, {"country_code": "US", "elevation": "18.38425636", "name": "Stanford Stadium", "zip": "94305", "grass": false, "capacity": 50424, "location": {"y": -122.1611271, "x": 37.4345556}, "id": 3940, "city": "Stanford", "year_constructed": 2006, "dome": false, "state": "CA"}, {"country_code": "US", "elevation": "122.5809097", "name": "Steele Stadium", "zip": null, "grass": null, "capacity": 3000, "location": {"y": -87.119976, "x": 37.742297}, "id": 5263, "city": "Owensboro", "year_constructed": 2004, "dome": false, "state": "KY"}, {"country_code": "US", "elevation": "222.7", "name": "Stewart \"\"Red\"\" Faught Stadium", "zip": null, "grass": null, "capacity": 4000, "location": null, "id": 3716, "city": "Franklin", "year_constructed": 1999, "dome": false, "state": "IN"}, {"country_code": "US", "elevation": "1451.553711", "name": "Stewart Stadium", "zip": null, "grass": null, "capacity": 17000, "location": {"y": -111.9401391, "x": 41.1918741}, "id": 3942, "city": "Ogden", "year_constructed": 1966, "dome": false, "state": "UT"}, {"country_code": "US", "elevation": "13.7104578", "name": "Strawberry Stadium", "zip": null, "grass": null, "capacity": 7408, "location": {"y": -90.4685792, "x": 30.5110264}, "id": 3944, "city": "Hammond", "year_constructed": 1936, "dome": false, "state": "LA"}, {"country_code": "US", "elevation": null, "name": "StubHub Center", "zip": null, "grass": false, "capacity": 0, "location": null, "id": 538, "city": "Carson", "year_constructed": null, "dome": null, "state": "CA"}, {"country_code": "US", "elevation": "321.2875061", "name": "Summa Field at InfoCision Stadium", "zip": "44399", "grass": false, "capacity": 30000, "location": {"y": -81.5083408, "x": 41.0725534}, "id": 3768, "city": "Akron", "year_constructed": 2009, "dome": false, "state": "OH"}, {"country_code": "US", "elevation": "1183.697876", "name": "Sun Bowl Stadium", "zip": "79968", "grass": false, "capacity": 51500, "location": {"y": -106.507957, "x": 31.7733353}, "id": 3946, "city": "El Paso", "year_constructed": 1963, "dome": false, "state": "TX"}, {"country_code": "US", "elevation": "360.1569519", "name": "Sun Devil Stadium", "zip": "85287", "grass": false, "capacity": 56232, "location": {"y": -111.9325005, "x": 33.4264471}, "id": 3947, "city": "Tempe", "year_constructed": 1958, "dome": false, "state": "AZ"}, {"country_code": "US", "elevation": "289.7", "name": "SunTrust Park", "zip": null, "grass": null, "capacity": 41084, "location": null, "id": 5319, "city": "Atlanta", "year_constructed": 2017, "dome": false, "state": "GA"}, {"country_code": "US", "elevation": "186.4", "name": "Superior Dome", "zip": "70118", "grass": false, "capacity": 8000, "location": null, "id": 3950, "city": "Marquette", "year_constructed": 1991, "dome": false, "state": "MI"}, {"country_code": "US", "elevation": "254.3902283", "name": "TCF Bank Stadium", "zip": "55488", "grass": false, "capacity": 50805, "location": {"y": -93.2245462, "x": 44.976525}, "id": 3953, "city": "Minneapolis", "year_constructed": 2009, "dome": false, "state": "MN"}, {"country_code": "US", "elevation": "6.564679146", "name": "Ted Wright Stadium", "zip": null, "grass": null, "capacity": 7500, "location": {"y": -81.0687492, "x": 32.0274346}, "id": 3952, "city": "Savannah", "year_constructed": 1967, "dome": false, "state": "GA"}, {"country_code": "US", "elevation": "212.4", "name": "The Reservation", "zip": null, "grass": null, "capacity": 10000, "location": null, "id": 4750, "city": "Gaffney", "year_constructed": 2008, "dome": false, "state": "SC"}, {"country_code": "BS", "elevation": "3.182889223", "name": "Thomas Robinson Stadium", "zip": null, "grass": true, "capacity": 15023, "location": {"y": -77.358736, "x": 25.055569}, "id": 4779, "city": "Nassau", "year_constructed": 1981, "dome": false, "state": ""}, {"country_code": "US", "elevation": "7.640734673", "name": "Tiger Stadium", "zip": "70803", "grass": true, "capacity": 102321, "location": {"y": -91.1838163, "x": 30.412035}, "id": 3958, "city": "Baton Rouge", "year_constructed": 1924, "dome": false, "state": "LA"}, {"country_code": "US", "elevation": "57.95064545", "name": "Torero Stadium", "zip": null, "grass": null, "capacity": 6000, "location": {"y": -117.183721, "x": 32.7730674}, "id": 716, "city": "San Diego", "year_constructed": 1961, "dome": false, "state": "CA"}, {"country_code": "US", "elevation": "270.7148743", "name": "Toyota Stadium", "zip": null, "grass": null, "capacity": 5000, "location": {"y": -84.545556, "x": 38.204444}, "id": 5096, "city": "Georgetown", "year_constructed": 1997, "dome": false, "state": "KY"}, {"country_code": "US", "elevation": "181.3815918", "name": "Toyota Stadium", "zip": null, "grass": null, "capacity": 20500, "location": {"y": -96.835278, "x": 33.154444}, "id": 1400, "city": "Frisco", "year_constructed": 2005, "dome": false, "state": "TX"}, {"country_code": "US", "elevation": "12.19581413", "name": "Tropicana Field", "zip": null, "grass": false, "capacity": 31042, "location": {"y": -82.653333, "x": 27.768333}, "id": 4113, "city": "Saint Petersburg", "year_constructed": 1990, "dome": false, "state": "FL"}, {"country_code": "US", "elevation": "340.8609314", "name": "Tucker Stadium", "zip": null, "grass": null, "capacity": 16500, "location": {"y": -85.506183, "x": 36.1780555}, "id": 3962, "city": "Cookeville", "year_constructed": 1966, "dome": false, "state": "TN"}, {"country_code": "US", "elevation": "282.0275574", "name": "Turner Stadium", "zip": null, "grass": null, "capacity": 4400, "location": {"y": -85.501228, "x": 40.456862}, "id": 5015, "city": "Upland", "year_constructed": 2015, "dome": false, "state": "IN"}, {"country_code": "US", "elevation": "181.5759735", "name": "UB Stadium", "zip": "14260", "grass": false, "capacity": 29013, "location": {"y": -78.7775113, "x": 42.9991334}, "id": 3965, "city": "Amherst", "year_constructed": 1993, "dome": false, "state": "NY"}, {"country_code": "US", "elevation": "281.8959656", "name": "UNI-Dome", "zip": null, "grass": false, "capacity": 16000, "location": {"y": -92.4672307, "x": 42.5156111}, "id": 3967, "city": "Cedar Falls", "year_constructed": 1976, "dome": false, "state": "IA"}, {"country_code": "US", "elevation": "70.1", "name": "University Field (NY)", "zip": null, "grass": null, "capacity": 10000, "location": null, "id": 3969, "city": "Albany", "year_constructed": 1970, "dome": false, "state": "NY"}, {"country_code": "US", "elevation": "325.6211243", "name": "University of Phoenix Stadium", "zip": null, "grass": true, "capacity": 63400, "location": {"y": -112.262559, "x": 33.527607}, "id": 3970, "city": "Glendale", "year_constructed": 2006, "dome": false, "state": "AZ"}, {"country_code": "US", "elevation": "1554.471924", "name": "University Stadium", "zip": "87131", "grass": false, "capacity": 39224, "location": {"y": -106.6283225, "x": 35.0669479}, "id": 3971, "city": "Albuquerque", "year_constructed": 1960, "dome": false, "state": "NM"}, {"country_code": "US", "elevation": "159.9194641", "name": "Vanderbilt Stadium", "zip": "37212", "grass": false, "capacity": 40350, "location": {"y": -86.8088942, "x": 36.1440455}, "id": 3973, "city": "Nashville", "year_constructed": 1922, "dome": false, "state": "TN"}, {"country_code": "US", "elevation": "146.8517151", "name": "Vaught-Hemingway Stadium", "zip": "38677", "grass": false, "capacity": 64038, "location": {"y": -89.5342076, "x": 34.3619837}, "id": 3974, "city": "Oxford", "year_constructed": 1915, "dome": false, "state": "MS"}, {"country_code": "US", "elevation": "154.7746277", "name": "Veterans Memorial Stadium", "zip": "36082", "grass": false, "capacity": 30000, "location": {"y": -85.9518328, "x": 31.7995565}, "id": 3975, "city": "Troy", "year_constructed": 1950, "dome": false, "state": "AL"}, {"country_code": "US", "elevation": "127.3836746", "name": "Villanova Stadium", "zip": null, "grass": null, "capacity": 12500, "location": {"y": -75.3367666, "x": 40.0343329}, "id": 717, "city": "Villanova", "year_constructed": 1927, "dome": false, "state": "PA"}, {"country_code": "US", "elevation": "63.39014053", "name": "Wagner College Stadium", "zip": "10301", "grass": false, "capacity": 3300, "location": {"y": -74.090639, "x": 40.614688}, "id": 3979, "city": "Staten Island", "year_constructed": 1967, "dome": false, "state": "NY"}, {"country_code": "US", "elevation": "243.8211212", "name": "Waldo Stadium", "zip": "49008", "grass": false, "capacity": 30200, "location": {"y": -85.6007573, "x": 42.2860064}, "id": 3980, "city": "Kalamazoo", "year_constructed": 1939, "dome": false, "state": "MI"}, {"country_code": "US", "elevation": "2097.884766", "name": "Walkup Skydome", "zip": null, "grass": false, "capacity": 15300, "location": {"y": -111.6528377, "x": 35.1805483}, "id": 2023, "city": "Flagstaff", "year_constructed": 1977, "dome": false, "state": "AZ"}, {"country_code": "US", "elevation": "103.0028152", "name": "Wallace Wade Stadium", "zip": "27708", "grass": false, "capacity": 40000, "location": {"y": -78.9417564, "x": 35.9953688}, "id": 3982, "city": "Durham", "year_constructed": 1929, "dome": false, "state": "NC"}, {"country_code": "US", "elevation": "2200.153564", "name": "War Memorial Stadium", "zip": "82071", "grass": false, "capacity": 29181, "location": {"y": -105.5681384, "x": 41.31161}, "id": 3984, "city": "Laramie", "year_constructed": 1950, "dome": false, "state": "WY"}, {"country_code": "US", "elevation": "112.1398163", "name": "War Memorial Stadium", "zip": null, "grass": false, "capacity": 54120, "location": {"y": -92.330127, "x": 34.749848}, "id": 3983, "city": "Little Rock", "year_constructed": 1948, "dome": false, "state": "AR"}, {"country_code": "US", "elevation": "46.58664703", "name": "Warren McGuirk Alumni Stadium", "zip": null, "grass": false, "capacity": 17000, "location": {"y": -72.5360595, "x": 42.3773244}, "id": 3985, "city": "Hadley", "year_constructed": 1965, "dome": false, "state": "MA"}, {"country_code": "US", "elevation": "970.345459", "name": "Washington-Grizzly Stadium", "zip": "59812", "grass": false, "capacity": 25200, "location": {"y": -113.9815042, "x": 46.8638753}, "id": 3987, "city": "Missoula", "year_constructed": 1986, "dome": false, "state": "MT"}, {"country_code": "US", "elevation": "222.4020081", "name": "Welcome Stadium", "zip": null, "grass": null, "capacity": 11000, "location": {"y": -84.1981068, "x": 39.7369239}, "id": 3988, "city": "Dayton", "year_constructed": 1949, "dome": false, "state": "OH"}, {"country_code": "US", "elevation": "19.05943298", "name": "Wildcat Stadium", "zip": null, "grass": null, "capacity": 11015, "location": {"y": -70.9393077, "x": 43.1386231}, "id": 3688, "city": "Durham", "year_constructed": 1936, "dome": false, "state": "NH"}, {"country_code": "US", "elevation": "520.9", "name": "Wildcat Stadium (TX)", "zip": null, "grass": null, "capacity": 12000, "location": null, "id": 5440, "city": "Abilene", "year_constructed": 2017, "dome": false, "state": "TX"}, {"country_code": "US", "elevation": "512.5", "name": "William B. Greene Jr. Stadium", "zip": null, "grass": null, "capacity": 7694, "location": null, "id": 5400, "city": "Johnson City", "year_constructed": 2017, "dome": false, "state": "TN"}, {"country_code": "US", "elevation": "4.916433334", "name": "William Dick\"\" Price Stadium\"\"", "zip": "23504", "grass": false, "capacity": 30000, "location": {"y": -76.2600839, "x": 36.8469442}, "id": 3991, "city": "Norfolk", "year_constructed": 1997, "dome": false, "state": "VA"}, {"country_code": "US", "elevation": "53.46718979", "name": "William H. Greene Stadium", "zip": null, "grass": null, "capacity": 7086, "location": {"y": -77.021047, "x": 38.925487}, "id": 3990, "city": "Washington", "year_constructed": 1926, "dome": false, "state": "DC"}, {"country_code": "US", "elevation": "60.54548645", "name": "Williams-Brice Stadium", "zip": "29208", "grass": false, "capacity": 80250, "location": {"y": -81.0191726, "x": 33.9730239}, "id": 3994, "city": "Columbia", "year_constructed": 1934, "dome": false, "state": "SC"}, {"country_code": "US", "elevation": "272.9237061", "name": "Williams Stadium", "zip": null, "grass": null, "capacity": 19200, "location": {"y": -79.1750239, "x": 37.3544305}, "id": 3992, "city": "Lynchburg", "year_constructed": 1989, "dome": false, "state": "VA"}, {"country_code": "US", "elevation": "242.2643585", "name": "Yager Stadium", "zip": "45056", "grass": false, "capacity": 24286, "location": {"y": -84.7330255, "x": 39.5197009}, "id": 3996, "city": "Oxford", "year_constructed": 1983, "dome": false, "state": "OH"}, {"country_code": "US", "elevation": "5.302621841", "name": "Yale Bowl", "zip": "06520", "grass": false, "capacity": 61446, "location": {"y": -72.9605333, "x": 41.3132441}, "id": 3997, "city": "New Haven", "year_constructed": 1914, "dome": false, "state": "CT"}, {"country_code": "US", "elevation": "6.745362282", "name": "Yankee Stadium", "zip": null, "grass": false, "capacity": 54251, "location": {"y": -73.926389, "x": 40.829167}, "id": 4102, "city": "New York", "year_constructed": 2009, "dome": false, "state": "NY"}, {"country_code": "US", "elevation": "26.07615852", "name": "Zable Stadium", "zip": null, "grass": null, "capacity": 12259, "location": {"y": -76.7137202, "x": 37.2730996}, "id": 3998, "city": "Williamsburg", "year_constructed": 1935, "dome": false, "state": "VA"}]